[{"text": "Zaspa, Gda\u0144sk, pomorskie", "name": "Zaspa", "region_id": 11, "subregion_id": 439, "city_id": 40, "district_id": 136, "lat_lon": "54.39408,18.60346"}, {"text": "Oliwa, Gda\u0144sk, pomorskie", "name": "Oliwa", "region_id": 11, "subregion_id": 439, "city_id": 40, "district_id": 16, "lat_lon": "54.40736,18.56375"}, {"text": "\u015ar\u00f3dmie\u015bcie, Gda\u0144sk, pomorskie", "name": "\u015ar\u00f3dmie\u015bcie", "region_id": 11, "subregion_id": 439, "city_id": 40, "district_id": 28, "lat_lon": "54.34961,18.65637"}, {"text": "Morena, Gda\u0144sk, pomorskie", "name": "Morena", "region_id": 11, "subregion_id": 439, "city_id": 40, "district_id": 919, "lat_lon": "54.35968,18.58359"}, {"text": "Wrzeszcz, Gda\u0144sk, pomorskie", "name": "Wrzeszcz", "region_id": 11, "subregion_id": 439, "city_id": 40, "district_id": 30, "lat_lon": "54.37822,18.59636"}, {"text": "Red\u0142owo, Gdynia, pomorskie", "name": "Red\u0142owo", "region_id": 11, "subregion_id": 278, "city_id": 206, "district_id": 598, "lat_lon": "54.49192,18.54911"}, {"text": "Or\u0142owo, Gdynia, pomorskie", "name": "Or\u0142owo", "region_id": 11, "subregion_id": 278, "city_id": 206, "district_id": 156, "lat_lon": "54.48017,18.55311"}, {"text": "\u015ar\u00f3dmie\u015bcie, Gdynia, pomorskie", "name": "\u015ar\u00f3dmie\u015bcie", "region_id": 11, "subregion_id": 278, "city_id": 206, "district_id": 244, "lat_lon": "54.51671,18.53639"}, {"text": "Wzg\u00f3rze \u015aw. Maksymiliana, Gdynia, pomorskie", "name": "Wzg\u00f3rze \u015aw. Maksymiliana", "region_id": 11, "subregion_id": 278, "city_id": 206, "district_id": 60952, "lat_lon": "54.50778,18.5355"}, {"text": "Witomino, Gdynia, pomorskie", "name": "Witomino", "region_id": 11, "subregion_id": 278, "city_id": 206, "district_id": 474, "lat_lon": "54.49698,18.5106"}]